City,Cloudiness,Country,Date,Humidity,Lat,Lng,Max Temp,Wind Speed
Ushuaia,75,AR,1627236302,100,-54.8,-68.3,33.46,21.85
Albany,94,US,1627236427,74,42.6001,-73.9662,81.27,6.62
Busselton,44,AU,1627236428,66,-33.65,115.3333,58.08,19.44
Naze,100,JP,1627236428,88,28.3667,129.4833,77.97,18.72
Gimli,18,CA,1627236428,33,50.6336,-96.9907,84.43,16.13
Carnarvon,0,AU,1627236429,72,-24.8667,113.6333,53.67,4.61
Ukiah,1,US,1627236429,32,39.1502,-123.2078,97.03,3.44
Provideniya,100,RU,1627236429,99,64.3833,-173.3,46.71,6.67
Rikitea,97,PF,1627236309,65,-23.1203,-134.9692,70.34,3.91
Hermanus,100,ZA,1627236429,55,-34.4187,19.2345,62.91,7.9
Barrow,90,US,1627236430,91,71.2906,-156.7887,42.82,13.8
Port Alfred,27,ZA,1627236430,49,-33.5906,26.891,61.03,11.43
Lagoa,100,PT,1627236431,82,39.05,-27.9833,69.49,12.8
Dongsheng,78,CN,1627236431,79,39.8161,109.9776,70.03,14.29
Batagay-Alyta,52,RU,1627236431,76,67.8006,130.4114,53.02,1.97
Basqal,54,AZ,1627236432,63,40.7552,48.391,69.46,4.72
Atuona,52,PF,1627236432,72,-9.8,-139.0333,77.38,23.67
Cape Town,100,ZA,1627236432,57,-33.9258,18.4232,63.12,6.49
Máncora,49,PE,1627236433,68,-4.1078,-81.0475,75.78,11.23
La Sarre,21,CA,1627236409,61,48.8002,-79.1996,73.74,7.78
Butaritari,18,KI,1627236433,76,3.0707,172.7902,81.95,10.31
Ojinaga,1,MX,1627236433,40,29.5667,-104.4167,94.57,0.0
Ribeira Grande,40,PT,1627236145,83,38.5167,-28.7,73.8,8.05
Avarua,75,CK,1627236142,94,-21.2078,-159.775,71.65,4.61
Cidreira,6,BR,1627236434,53,-30.1811,-50.2056,74.28,6.53
Coquimbo,0,CL,1627236434,55,-29.9533,-71.3436,60.53,8.05
Punta Arenas,86,CL,1627236141,63,-53.15,-70.9167,41.11,16.06
New Norfolk,74,AU,1627236434,69,-42.7826,147.0587,41.67,4.0
Seversk,93,RU,1627236434,93,56.6006,84.8864,72.09,4.16
Hirara,100,JP,1627236435,91,24.8,125.2833,83.41,12.84
Lishui,100,CN,1627236435,95,28.4604,119.9103,75.72,3.87
São Filipe,56,CV,1627236435,73,14.8961,-24.4956,74.25,7.7
Miandrivazo,84,MG,1627236436,42,-19.5167,45.4667,76.37,8.16
Hilo,90,US,1627236308,90,19.7297,-155.09,78.8,0.0
Upernavik,47,GL,1627236436,82,72.7868,-56.1549,41.0,11.56
Yangi Marg`ilon,1,UZ,1627236436,14,40.4272,71.7189,85.42,3.94
Unaí,0,BR,1627236437,26,-16.3575,-46.9061,82.18,6.33
Okha,96,RU,1627236269,84,53.5739,142.9478,67.77,6.98
Maxixe,58,MZ,1627236437,77,-23.8597,35.3472,63.23,9.48
Bluff,100,NZ,1627236437,82,-46.6,168.3333,47.8,5.91
Grindavik,75,IS,1627236438,87,63.8424,-22.4338,52.27,34.52
Kruisfontein,59,ZA,1627236438,45,-34.0033,24.7314,53.71,3.13
Barra de Tecoanapa,96,MX,1627236438,67,16.5167,-98.75,86.45,9.8
Jamestown,40,US,1627236324,62,42.097,-79.2353,84.09,5.01
Ostrovnoy,95,RU,1627236439,85,68.0531,39.5131,46.45,17.69
Souillac,1,MU,1627236439,60,-20.5167,57.5167,70.36,14.56
George Town,20,MY,1627236440,80,5.4112,100.3354,83.89,0.0
Nome,90,US,1627236440,87,64.5011,-165.4064,48.27,10.36
Tacoronte,20,ES,1627236440,56,28.4769,-16.4102,78.26,21.85
Yellowknife,9,CA,1627236440,51,62.456,-114.3525,60.3,4.0
Severo-Kuril'sk,82,RU,1627236441,97,50.6789,156.125,53.69,3.36
Constitución,50,CL,1627236441,88,-35.3333,-72.4167,53.44,10.25
Kokopo,57,PG,1627236441,85,-4.352,152.2633,76.6,3.94
Hervey Bay,78,AU,1627236442,60,-25.2986,152.8535,52.03,11.65
Fremont,1,US,1627236307,56,37.5483,-121.9886,83.88,5.99
Dingle,73,PH,1627236442,91,10.9995,122.6711,76.84,8.41
Hong Kong,20,HK,1627236181,87,22.2855,114.1577,86.32,4.0
Amuntai,4,ID,1627236442,92,-2.4177,115.2494,71.31,1.16
Puerto Ayora,38,EC,1627236442,83,-0.7393,-90.3518,75.54,7.0
Tezu,90,IN,1627236443,97,27.9167,96.1667,77.58,2.86
Chokurdakh,2,RU,1627236443,80,70.6333,147.9167,35.15,10.04
Lorengau,20,PG,1627236443,84,-2.0226,147.2712,78.53,9.28
Ozinki,20,RU,1627236444,43,51.1786,49.6769,66.67,8.21
Hasaki,0,JP,1627236444,79,35.7333,140.8333,75.6,14.23
Muros,46,ES,1627236444,72,42.7762,-9.0603,80.17,11.68
Cherskiy,27,RU,1627236445,72,68.75,161.3,41.97,7.54
Bethel,90,US,1627236256,85,41.3712,-73.414,79.2,1.99
Mar del Plata,82,AR,1627236225,46,-38.0023,-57.5575,57.09,8.99
Luganville,53,VU,1627236445,87,-15.5333,167.1667,76.71,1.32
Banda Aceh,92,ID,1627236445,83,5.5577,95.3222,80.19,6.04
Ripky,45,UA,1627236446,67,51.801,31.0838,68.14,2.53
Torbay,90,CA,1627236202,93,47.6666,-52.7314,61.29,10.36
Port Lincoln,41,AU,1627236446,86,-34.7333,135.8667,55.24,17.36
Beira,40,MZ,1627236446,73,-19.8436,34.8389,68.09,10.36
Mahibadhoo,100,MV,1627236447,77,3.7833,72.9667,82.15,19.98
Bredasdorp,100,ZA,1627236447,56,-34.5322,20.0403,51.28,4.61
Qaanaaq,88,GL,1627236447,70,77.484,-69.3632,40.23,5.48
Manzanillo,37,CU,1627236448,57,20.3433,-77.1167,89.08,7.92
Anadyr,99,RU,1627236448,95,64.75,177.4833,49.55,7.54
Fortuna,79,US,1627236448,87,40.5982,-124.1573,80.42,6.26
Rochegda,75,RU,1627236448,79,62.8,43.25,56.07,3.96
Castro,2,BR,1627236449,41,-24.7911,-50.0119,70.07,7.7
Pevek,100,RU,1627236449,90,69.7008,170.3133,34.86,9.48
Qrendi,0,MT,1627236449,54,35.8347,14.4583,83.1,5.75
Hamilton,75,US,1627236186,69,39.1834,-84.5333,90.88,1.01
San Policarpo,60,PH,1627236450,77,12.1791,125.5072,81.57,10.27
Aginskoye,68,RU,1627236450,83,51.1,114.53,57.27,7.38
Terra Santa,86,BR,1627236450,30,-2.1042,-56.4869,96.03,5.59
São João da Barra,0,BR,1627236251,60,-21.6403,-41.0511,77.09,14.61
Meulaboh,98,ID,1627236451,86,4.1363,96.1285,78.04,2.3
Dikson,54,RU,1627236451,89,73.5069,80.5464,38.34,13.18
Tuktoyaktuk,100,CA,1627236451,92,69.4541,-133.0374,45.05,21.79
Cabo San Lucas,1,MX,1627236303,58,22.8909,-109.9124,95.5,12.66
Fukuechō,100,JP,1627236452,82,32.6881,128.8419,79.54,20.62
Nouadhibou,17,MR,1627236452,93,20.931,-17.0347,68.58,21.68
Chui,61,UY,1627236452,79,-33.6971,-53.4616,68.05,10.36
Linhares,79,BR,1627236154,47,-19.3911,-40.0722,76.03,7.38
Nokaneng,0,BW,1627236453,40,-19.6667,22.2667,57.43,8.52
Te Anau,100,NZ,1627236431,95,-45.4167,167.7167,45.55,4.0
Lavrentiya,100,RU,1627236453,99,65.5833,-171.0,44.06,4.99
Roura,75,GF,1627236373,89,4.7263,-52.3274,82.96,0.0
Seoul,59,KR,1627236336,63,37.5683,126.9778,81.84,2.04
Srednekolymsk,100,RU,1627236453,76,67.45,153.6833,39.24,15.68
Løding,20,NO,1627236454,83,67.3,14.75,62.65,1.99
San Cristobal,100,VE,1627236218,49,7.7669,-72.225,82.47,5.28
Bongandanga,93,CD,1627236454,56,1.5,21.05,79.83,1.74
Skibbereen,24,IE,1627236454,80,51.55,-9.2667,73.2,0.96
Tsimmerbude,64,RU,1627236455,70,54.675,20.1347,77.05,9.98
Grand-Santi,56,GF,1627236455,61,4.25,-54.3833,85.87,4.5
Klaksvík,100,FO,1627236167,96,62.2266,-6.589,52.72,12.55
Bridgwater,91,GB,1627236455,72,51.1284,-3.0036,73.62,3.0
Pacific Grove,20,US,1627236456,84,36.6177,-121.9166,76.1,1.99
Arrondissement de Tarbes,90,FR,1627236456,82,43.25,0.1667,74.25,6.91
Saint Anthony,1,US,1627236456,29,45.0205,-93.218,91.78,4.0
Yar-Sale,56,RU,1627236456,77,66.8333,70.8333,49.73,19.24
Saint-Philippe,37,RE,1627236457,77,-21.3585,55.7679,69.39,11.39
Mackay,3,AU,1627236457,50,-21.15,149.2,58.73,5.84
Lompoc,75,US,1627236412,74,34.6391,-120.4579,78.01,1.99
Kumul,0,CN,1627236457,19,42.8,93.45,88.23,11.65
Korla,0,CN,1627236458,17,41.7597,86.1469,88.99,12.37
Alugan,61,PH,1627236458,77,12.2188,125.4808,81.45,10.27
Ayan,97,RU,1627236458,96,56.45,138.1667,58.42,3.02
Sinnamary,99,GF,1627236459,79,5.3833,-52.95,79.88,3.22
Malartic,17,CA,1627236459,79,48.1335,-78.1328,73.02,9.37
Hofn,97,IS,1627236459,88,64.2539,-15.2082,52.14,15.17
Kaitangata,100,NZ,1627236459,62,-46.2817,169.8464,47.93,4.85
Khatanga,54,RU,1627236460,83,71.9667,102.5,50.34,7.25
Tuatapere,100,NZ,1627236460,90,-46.1333,167.6833,47.82,4.7
Oranjemund,100,NA,1627236460,30,-28.55,16.4333,64.9,3.22
Mount Gambier,90,AU,1627236461,93,-37.8333,140.7667,51.71,16.11
Fairbanks,90,US,1627236370,69,64.8378,-147.7164,61.09,1.01
Kattivākkam,75,IN,1627236461,70,13.2167,80.3167,82.49,12.93
Saint-François,0,FR,1627236461,64,46.4154,3.9054,75.18,5.75
Mossamedes,0,AO,1627236462,67,-15.1961,12.1522,68.05,3.8
Longyearbyen,75,SJ,1627236462,87,78.2186,15.6401,44.44,10.36
Bonavista,45,CA,1627236186,82,48.6499,-53.1147,60.12,7.54
Kavaratti,100,IN,1627236462,77,10.5669,72.642,81.55,22.39
Gao,34,ML,1627236463,32,16.6362,1.637,96.69,8.23
Vaini,20,TO,1627236463,100,-21.2,-175.2,66.36,0.0
Lebu,89,CL,1627236463,89,-37.6167,-73.65,51.17,4.5
Novyy Urgal,100,RU,1627236463,95,51.0736,132.5642,64.92,2.59
Hithadhoo,85,MV,1627236464,74,-0.6,73.0833,80.87,3.24
Road Town,40,VG,1627236379,79,18.4167,-64.6167,87.84,8.05
Mataura,100,NZ,1627236464,88,-46.1927,168.8643,47.48,4.59
Port Elizabeth,44,ZA,1627236427,51,-33.918,25.5701,58.78,4.97
Saskylakh,40,RU,1627236465,82,71.9167,114.0833,52.66,7.96
San Jose,40,US,1627236387,50,37.3394,-121.895,83.77,3.44
Xingyi,100,CN,1627236465,95,24.1877,102.817,59.32,1.95
Husavik,100,IS,1627236465,67,66.0449,-17.3389,56.59,4.14
Zyryanka,100,RU,1627236466,70,65.75,150.85,48.6,15.46
Thompson,82,CA,1627236466,25,55.7435,-97.8558,64.81,10.67
Hobart,67,AU,1627236466,76,-42.8794,147.3294,42.03,1.01
Puerto Lumbreras,20,ES,1627236467,49,37.5633,-1.8097,93.99,7.09
Kerman,1,IR,1627236467,8,30.2832,57.0788,84.34,17.13
Medeiros Neto,57,BR,1627236453,56,-17.3739,-40.2206,75.49,11.54
Thinadhoo,56,MV,1627236467,68,0.5333,72.9333,82.45,2.08
Tasiilaq,66,GL,1627236468,87,65.6145,-37.6368,46.56,5.1
Camaná,55,PE,1627236468,76,-16.6228,-72.7111,63.73,9.04
Vikhorevka,64,RU,1627236468,68,56.1201,101.1636,69.39,2.71
Pridonskoy,0,RU,1627236468,52,51.6841,39.0727,68.56,4.47
Airai,40,TL,1627236469,51,-8.9266,125.4092,55.54,3.06
Picos,2,BR,1627236469,20,-7.0769,-41.4669,94.59,10.38
Arraial do Cabo,0,BR,1627236469,69,-22.9661,-42.0278,75.06,23.02
Ossora,81,RU,1627236470,96,59.2353,163.0719,55.78,3.85
Bambous Virieux,3,MU,1627236470,64,-20.3428,57.7575,70.21,14.2
Omsukchan,100,RU,1627236470,98,62.5333,155.8,49.14,7.09
Saint Paul Harbor,70,US,1627236471,91,57.79,-152.4072,50.36,1.28
Oga,79,IT,1627236471,80,46.4631,10.347,61.65,5.32
Alofi,17,NU,1627236471,77,-19.0595,-169.9187,77.43,4.79
Kawalu,7,ID,1627236410,97,-7.3817,108.2082,66.78,0.94
Laguna,1,US,1627236272,40,38.421,-121.4238,102.43,4.61
Coyhaique,75,CL,1627236472,53,-45.5752,-72.0662,45.21,5.75
Champerico,85,GT,1627236472,72,14.3,-91.9167,92.77,6.53
Cockburn Town,9,TC,1627236472,80,21.4612,-71.1419,82.65,11.41
Geraldton,0,AU,1627236473,93,-28.7667,114.6,48.61,12.66
Maceió,75,BR,1627236322,83,-9.6658,-35.7353,76.44,10.36
Kushiro,28,JP,1627236473,96,42.975,144.3747,61.03,0.29
Marsá Maţrūḩ,0,EG,1627236473,59,31.3525,27.2453,78.6,7.52
Yarovoy,67,RU,1627236474,51,52.9273,78.58,74.8,5.39
Polyarny,98,RU,1627236474,78,69.1989,33.4478,54.07,16.44
Sterling,75,US,1627236216,59,39.0062,-77.4286,91.69,8.01
Padre Bernardo,0,BR,1627236287,21,-15.35,-48.5,85.15,6.55
Kinlochleven,13,GB,1627236474,73,56.7115,-4.9661,77.18,3.56
Meadow Lake,59,US,1627236475,47,34.8014,-106.5436,83.84,5.84
Rawson,18,AR,1627236475,33,-43.3002,-65.1023,52.41,19.51
Gharo,87,PK,1627236475,78,24.7424,67.5856,84.42,19.62
Grand Gaube,0,MU,1627236476,60,-20.0064,57.6608,70.38,5.99
San Patricio,4,US,1627236476,44,28.017,-97.5169,94.01,10.49
Wawa,90,NG,1627236476,73,9.9022,4.4192,79.21,6.42
Jaru,8,BR,1627236476,23,-10.4389,-62.4664,99.0,5.26
Buala,69,SB,1627236477,84,-8.145,159.5921,79.21,7.09
Osa,89,RU,1627236477,61,57.2829,55.4567,54.57,1.72
Kargasok,32,RU,1627236477,82,59.0556,80.8572,63.37,4.14
Tyrma,100,RU,1627236478,96,50.0833,132.1667,66.74,0.83
Shelabolikha,25,RU,1627236478,68,53.4131,82.6167,78.26,3.6
Marawi,62,PH,1627236478,88,7.9986,124.2928,70.65,4.43
Camacha,40,PT,1627236479,83,33.0833,-16.3333,74.16,12.66
Taoudenni,16,ML,1627236479,6,22.6783,-3.9836,113.99,10.8
Cowansville,100,CA,1627236479,88,45.2001,-72.7491,81.75,9.51
Wanning,86,CN,1627236480,90,18.8003,110.3967,79.72,11.27
Umm Kaddadah,61,SD,1627236480,39,13.6017,26.6876,90.72,15.46
Mahébourg,2,MU,1627236480,63,-20.4081,57.7,70.25,14.25
Tautira,2,PF,1627236206,67,-17.7333,-149.15,75.22,10.07
Saurimo,2,AO,1627236481,34,-9.6608,20.3916,69.76,5.23
Nanortalik,100,GL,1627236481,74,60.1432,-45.2371,45.28,12.97
Teknāf,100,BD,1627236481,91,20.8624,92.3058,80.2,5.95
São Miguel do Araguaia,1,BR,1627236481,22,-13.275,-50.1628,92.1,6.87
Ponta do Sol,6,PT,1627236482,76,32.6667,-17.1,78.71,5.08
Kapaa,75,US,1627236482,82,22.0752,-159.319,80.92,4.0
Guanare,100,VE,1627236482,66,9.0418,-69.7421,85.35,5.44
Viranşehir,0,TR,1627236483,23,37.2353,39.7631,91.92,7.31
Chaozhou,30,CN,1627236483,85,23.6651,116.6379,80.53,4.0
Lüderitz,74,NA,1627236207,25,-26.6481,15.1594,66.45,4.34
Touros,14,BR,1627236484,60,-5.1989,-35.4608,85.1,18.21
Hermiston,1,US,1627236377,35,45.8404,-119.2895,90.23,5.75
San Rafael,0,AR,1627236484,28,-34.6177,-68.3301,56.86,6.98
Luba,58,GQ,1627236484,81,3.4568,8.5547,77.7,7.87
Kidal,71,ML,1627236485,51,18.4411,1.4078,82.33,24.43
Shahdad Kot,20,PK,1627236485,28,27.8477,67.9055,105.58,14.58
Talnakh,100,RU,1627236485,94,69.4865,88.3972,56.3,6.33
Ust-Nera,100,RU,1627236486,97,64.5667,143.2,50.41,7.43
Clyde River,90,CA,1627236486,100,70.4692,-68.5914,35.83,12.66
Deputatsky,9,RU,1627236486,81,69.3,139.9,43.09,3.04
Russell,20,US,1627236487,59,32.3502,-85.1999,92.91,3.44
Kholodnyy,100,RU,1627236487,98,62.7167,147.95,54.37,3.24
Minot,1,US,1627236289,23,48.2325,-101.2963,91.62,4.61
Beringovskiy,98,RU,1627236487,91,63.05,179.3167,51.33,1.83
Noumea,70,NC,1627236488,99,-22.2763,166.4572,69.01,7.34
Snezhnogorsk,95,RU,1627236488,78,69.1933,33.2531,53.38,14.5
Luanda,3,AO,1627236199,83,-8.8368,13.2343,71.19,10.4
Derzhavīnsk,1,KZ,1627236488,50,51.1,66.3167,68.83,7.4
Carmelo,94,UY,1627236488,88,-33.9892,-58.2856,60.17,7.74
Puerto del Rosario,0,ES,1627236489,73,28.5004,-13.8627,78.48,14.97
Bilibino,12,RU,1627236489,75,68.0546,166.4372,44.28,4.94
Yangambi,74,CD,1627236489,60,0.8102,24.4336,79.11,3.15
Sayyan,91,YE,1627236490,68,15.1718,44.3244,64.08,2.24
Fara in Sabina,100,IT,1627236490,32,42.2089,12.7292,83.88,4.76
Avera,93,US,1627236490,50,33.194,-82.5271,90.91,3.49
Baghdad,0,IQ,1627236465,21,33.3406,44.4009,102.11,8.05
Tornio,87,FI,1627236491,79,65.8481,24.1466,64.42,5.08
Flin Flon,90,CA,1627236491,100,54.7682,-101.865,58.84,4.61
Muhafazat Lahij,95,YE,1627236344,73,13.1667,44.5833,79.25,1.52
Pirovskoye,0,RU,1627236491,72,57.6267,92.2658,64.63,5.55
Kalmunai,100,LK,1627236492,74,7.4167,81.8167,81.82,8.25
Goderich,0,CA,1627236257,76,43.7501,-81.7165,82.04,10.51
Ascension,1,US,1627236492,59,30.2169,-90.9001,96.8,5.75
Khandyga,76,RU,1627236492,96,62.6667,135.6,53.56,1.43
Oistins,75,BB,1627236475,70,13.0667,-59.5333,87.89,17.27
Henties Bay,1,NA,1627236493,34,-22.116,14.2845,70.36,9.31
Ust'-Koksa,23,RU,1627236493,88,50.2696,85.6108,57.74,0.6
Port Blair,100,IN,1627236493,86,11.6667,92.75,82.22,17.25
Sitka,75,US,1627236493,82,57.0531,-135.33,57.09,3.44
Necochea,100,AR,1627236494,84,-38.5473,-58.7368,52.03,17.4
Cururupu,85,BR,1627236494,64,-1.8283,-44.8683,83.8,4.18
Broome,20,US,1627236495,62,42.2506,-75.833,85.69,1.99
Alice Springs,84,AU,1627236495,37,-23.7,133.8833,53.15,3.44
Shizunai-furukawachō,36,JP,1627236495,93,42.3339,142.3669,67.57,5.82
Faanui,2,PF,1627236495,66,-16.4833,-151.75,77.77,13.11
Marsberg,33,DE,1627236496,77,51.4617,8.8495,77.81,3.02
Ust-Tsilma,99,RU,1627236496,94,65.441,52.1498,45.81,6.87
Muriaé,0,BR,1627236432,35,-21.1306,-42.3664,85.42,5.77
Troitsko-Pechorsk,79,RU,1627236496,84,62.7084,56.1964,47.26,5.17
Verkhnyaya Inta,100,RU,1627236497,87,65.9811,60.3094,48.7,17.49
Domanivka,9,UA,1627236497,42,47.6319,30.9885,75.9,5.19
Launceston,75,AU,1627236497,90,-41.45,147.1667,44.8,10.36
Norman Wells,88,CA,1627236498,44,65.282,-126.8329,66.45,2.82
Ilulissat,75,GL,1627236498,35,69.2167,-51.1,55.42,13.8
Nassau,90,US,1627236240,76,40.7507,-73.5829,85.32,5.01
Erzin,0,TR,1627236498,84,36.9559,36.2,82.92,3.87
Vanavara,37,RU,1627236499,71,60.34,102.2797,63.46,3.78
Kirakira,75,SB,1627236499,84,-10.4544,161.9205,78.28,6.51
Vanino,94,RU,1627236499,90,49.0869,140.2543,68.95,1.95
Sistranda,55,NO,1627236500,87,63.7256,8.834,58.96,9.13
Novosheshminsk,5,RU,1627236500,52,55.0651,51.2338,57.22,2.95
San Lorenzo,0,PY,1627236500,37,-25.3333,-57.5333,88.74,13.8
Tuy Hoa,35,VN,1627236354,65,13.0833,109.3,81.63,16.55
Olinda,75,BR,1627236500,78,-8.0089,-34.8553,74.93,12.66
Bintulu,95,MY,1627236501,86,3.1667,113.0333,80.64,2.08
Lavaca,1,US,1627236501,61,28.615,-96.6261,94.28,8.05
Iwanai,20,JP,1627236501,97,42.9744,140.5089,68.36,5.86
Hadejia,99,NG,1627236502,57,12.4498,10.0444,86.0,8.52
Portland,0,US,1627235761,59,45.5234,-122.6762,80.71,1.99
Odda,75,NO,1627236502,60,60.0691,6.5457,72.55,5.01
Walvis Bay,5,NA,1627236502,28,-22.9575,14.5053,72.81,9.1
Makat,1,KZ,1627236503,24,47.6469,53.3463,85.66,14.79
Caravelas,59,BR,1627236503,65,-17.7125,-39.2481,74.16,7.49
Nishihara,75,JP,1627236503,94,26.1842,127.7558,80.26,12.66
Ushtobe,0,KZ,1627236503,18,45.2514,77.9838,80.96,7.25
São Francisco,0,BR,1627236504,18,-15.9486,-44.8644,84.76,6.13
Havelock,40,US,1627236504,70,34.8791,-76.9013,88.03,7.0
Raudeberg,19,NO,1627236505,86,61.9875,5.1352,74.8,10.2
Galle,73,LK,1627236436,86,6.0367,80.217,78.35,12.62
Sohag,0,EG,1627236505,20,26.557,31.6948,90.9,8.19
Dundee,0,GB,1627236211,72,56.5,-2.9667,72.81,6.91
Saint-Pierre,40,RE,1627236506,78,-21.3393,55.4781,69.48,10.36
Sangāreddi,52,IN,1627236506,83,17.6294,78.0917,78.08,13.09
Dalby,91,AU,1627236506,74,-27.1833,151.2667,41.85,6.06
Araouane,56,ML,1627236507,18,18.9048,-3.5265,105.31,8.03
Los Llanos de Aridane,20,ES,1627236507,83,28.6585,-17.9182,73.15,16.11
Bridlington,63,GB,1627236507,83,54.0831,-0.1919,69.15,12.12
Libenge,99,CD,1627236508,77,3.65,18.6333,75.94,0.43
Pangnirtung,90,CA,1627236508,93,66.1451,-65.7125,50.0,0.0
Eisenstadt,62,AT,1627236508,44,47.8457,16.5233,82.36,4.56
Neuquén,98,AR,1627236430,40,-38.9516,-68.0591,55.27,12.03
Lata,83,PT,1627236509,76,40.1629,-8.3327,74.05,8.99
Nuuk,75,GL,1627236509,66,64.1835,-51.7216,52.41,3.44
Carinhanha,0,BR,1627236509,20,-14.3047,-43.765,85.57,7.7
San Quintín,100,MX,1627236431,82,30.4833,-115.95,68.58,6.4
Hvolsvollur,83,IS,1627236510,83,63.7533,-20.2243,52.81,23.55
Esperance,4,AU,1627236510,83,-33.8667,121.9,54.16,17.49
Morondava,22,MG,1627236510,50,-20.2833,44.2833,75.81,13.35
Marion,90,US,1627236510,72,39.7684,-86.1555,88.39,9.22
Novobiryusinskiy,41,RU,1627236511,64,56.9578,97.7076,66.33,3.67
Nikolskoye,51,RU,1627236511,64,59.7035,30.7861,69.69,2.42
Comodoro Rivadavia,20,AR,1627236511,40,-45.8667,-67.5,48.06,14.97
Marshall,40,US,1627236503,63,34.3834,-86.3333,92.48,1.01
Brae,64,GB,1627236512,74,60.3964,-1.353,60.71,3.83
Nabire,100,ID,1627236512,89,-3.3667,135.4833,75.13,3.85
Kavieng,53,PG,1627236512,76,-2.5744,150.7967,81.05,1.05
Bac Lieu,77,VN,1627236278,85,9.285,105.7244,78.69,7.67
Waipawa,100,NZ,1627236513,78,-41.4122,175.5153,54.03,12.41
Leningradskiy,100,RU,1627236513,90,69.3833,178.4167,37.62,4.63
Yining,3,CN,1627236513,89,29.0361,114.5636,75.76,1.61
Mastic Beach,90,US,1627236450,88,40.7668,-72.8521,80.55,1.01
Jiayuguan City,97,CN,1627236514,39,39.8167,98.3,74.82,5.66
Porto-Novo,48,BJ,1627236446,72,6.4965,2.6036,76.98,10.16
Pak Phanang,100,TH,1627236514,76,8.3511,100.202,82.08,6.62
Herat Province,0,AF,1627236514,12,34.5,62.0,89.46,40.02
Nantucket,90,US,1627236312,84,41.2835,-70.0995,72.0,13.8
Golden,40,US,1627236292,36,39.7555,-105.2211,89.26,1.99
Manadhoo,100,MV,1627236515,79,5.7667,73.3833,81.59,21.43
Iqaluit,98,CA,1627236515,93,63.7506,-68.5145,45.7,4.0
Cap Malheureux,0,MU,1627236515,60,-19.9842,57.6142,70.47,5.99
Braniştea,5,RO,1627236516,47,44.6833,25.5833,79.92,7.49
Kamenka,84,RU,1627236516,54,51.3223,42.7678,64.53,6.33
Paragominas,56,BR,1627236516,31,-2.9667,-47.4833,92.57,5.77
Eyemouth,2,GB,1627236517,88,55.8713,-2.0901,68.81,3.0
Hobyo,78,SO,1627236374,73,5.3505,48.5268,77.36,24.76
Yaan,87,NG,1627236517,92,7.3833,8.5667,73.35,5.75
Nyurba,14,RU,1627236517,66,63.2842,118.3319,61.79,5.7
Coahuayana Viejo,93,MX,1627236518,63,18.7333,-103.6833,89.08,5.3
Shimoda,6,JP,1627236518,87,34.6667,138.95,77.11,7.67
Petropavlivka,47,UA,1627236518,60,48.4564,36.4367,72.46,8.34
Sabang,98,ID,1627236519,78,5.8933,95.3214,83.01,10.36
Dingzhou,31,CN,1627236519,82,38.5131,114.9956,77.68,1.12
Havøysund,95,NO,1627236519,76,70.9963,24.6622,47.28,7.92
Weihe,92,CN,1627236519,97,32.9952,105.3247,66.2,2.8
Aklera,59,IN,1627236520,90,24.4167,76.5667,79.66,12.01
Berlevåg,100,NO,1627236520,83,70.8578,29.0864,46.4,18.75
Codrington,98,AU,1627236520,92,-38.2667,141.9667,49.68,15.17
Tabuk,100,PH,1627236521,78,17.4189,121.4443,76.78,2.84
Aklavik,94,CA,1627236521,66,68.2191,-135.0107,55.85,20.94
Punalūr,94,IN,1627236521,95,9.0,76.9333,80.28,6.11
Vao,64,NC,1627236522,79,-22.6667,167.4833,70.84,13.35
Mount Isa,4,AU,1627236522,52,-20.7333,139.5,42.57,3.44
Isugod,100,PH,1627236522,81,9.3408,118.1196,80.49,5.66
Inta,100,RU,1627236522,89,66.0317,60.1659,48.67,19.1
Tarko-Sale,100,RU,1627236523,85,64.9225,77.785,59.94,4.47
Mühlhausen,57,DE,1627236523,76,51.2167,10.45,75.88,3.4
Heide,52,DE,1627236523,81,54.2,9.1,76.17,3.06
Matara,68,LK,1627236524,88,5.9485,80.5353,77.68,10.4
Bilma,64,NE,1627236524,27,18.6853,12.9164,99.84,3.51
Ca Mau,95,VN,1627236524,88,9.1769,105.15,77.63,4.72
Ereymentau,68,KZ,1627236525,80,51.6199,73.1033,66.34,13.04
Arrondissement du Havre,90,FR,1627236525,88,49.5833,0.3333,69.58,8.05
Tegul'det,99,RU,1627236525,76,57.3064,88.1667,65.01,1.07
Tombouctou,14,ML,1627236526,17,20.0,-3.0,105.6,11.21
Baruun-Urt,100,MN,1627236526,63,46.6806,113.2792,62.94,14.16
Ahipara,71,NZ,1627236526,93,-35.1667,173.1667,57.0,8.72
Mandalgovi,100,MN,1627236526,77,45.7625,106.2708,60.57,11.95
Abu Samrah,0,SY,1627236527,30,35.3029,37.1841,89.04,11.34
Finschhafen,43,PG,1627236527,83,-6.6024,147.8681,77.94,7.2
Cayenne,75,GF,1627236479,80,4.9333,-52.3333,83.08,1.99
Palmer,90,US,1627236321,80,42.1584,-72.3287,73.45,4.0
Mazagão,83,BR,1627236527,46,-0.115,-51.2894,93.25,3.42
Kokkola,0,FI,1627236528,69,63.8385,23.1307,72.03,3.0
Eenhana,0,NA,1627236528,32,-17.4667,16.3333,64.83,7.4
Dunedin,100,NZ,1627236528,58,-45.8742,170.5036,51.8,17.0
Sisimiut,100,GL,1627236528,81,66.9395,-53.6735,43.95,5.55
Sakaiminato,3,JP,1627236529,71,35.55,133.2333,78.62,5.01
Port Antonio,58,JM,1627236282,67,18.18,-76.4612,87.94,5.88
Vanimo,100,PG,1627236529,81,-2.6741,141.3028,74.73,3.4
Pelotas,0,BR,1627236530,57,-31.7719,-52.3425,75.22,11.5
Broken Hill,45,AU,1627236530,77,-31.95,141.4333,47.95,12.68
Pingzhuang,100,CN,1627236530,80,42.0372,119.2889,73.24,13.4
Santa Barbara,1,US,1627236404,61,34.7333,-120.0343,89.35,5.75
Tonalá,20,MX,1627236531,53,20.6167,-103.2333,78.12,4.61
Mayor Pablo Lagerenza,0,PY,1627236531,18,-19.9309,-60.7718,98.47,17.87
Suratgarh,53,IN,1627236532,41,29.3167,73.9,99.09,13.67
Ternate,100,ID,1627236532,80,0.8,127.4,80.73,7.29
Lālmohan,100,BD,1627236532,86,22.3384,90.7419,83.17,8.08
Bengkulu,2,ID,1627236532,90,-3.8004,102.2655,75.49,4.83
Honiara,94,SB,1627236533,89,-9.4333,159.95,77.09,4.81
Revúca,59,SK,1627236533,81,48.6835,20.1173,72.57,3.47
Praia da Vitória,75,PT,1627236533,88,38.7333,-27.0667,71.85,11.97
Vardø,75,NO,1627236534,87,70.3705,31.1107,50.2,16.11
Huarmey,17,PE,1627236534,73,-10.0681,-78.1522,68.25,8.41
Bathsheba,75,BB,1627236534,70,13.2167,-59.5167,88.41,17.27
Pozo Colorado,60,PY,1627236423,22,-23.4923,-58.7972,94.98,13.8
Khani,56,GE,1627236535,97,41.9563,42.9566,63.97,2.33
Arifwala,26,PK,1627236535,37,30.294,73.0735,100.13,9.48
Prince George,40,CA,1627236535,71,53.9166,-122.753,60.24,0.0
Batagay,29,RU,1627236536,77,67.6333,134.6333,52.56,3.11
Springbok,100,ZA,1627236536,26,-29.6643,17.8865,56.16,8.79
Quatre Cocos,3,MU,1627236536,65,-20.2078,57.7625,70.09,14.34
Mehamn,75,NO,1627236537,76,71.0357,27.8492,46.58,13.8
El Alto,41,PE,1627236537,70,-4.2714,-81.2147,73.06,13.47
Simao,100,CN,1627236537,99,22.7886,100.9748,64.26,1.21
Namatanai,58,PG,1627236538,84,-3.6667,152.4333,78.53,3.02
Vestmannaeyjar,75,IS,1627236538,82,63.4427,-20.2734,52.79,27.63
Samarai,100,PG,1627236538,78,-10.6167,150.6667,78.87,17.58
Miles City,1,US,1627236320,19,46.4083,-105.8406,90.57,5.75
Southbridge,97,US,1627236538,91,42.0751,-72.0334,71.92,5.01
Aksarka,19,RU,1627236539,77,66.5606,67.7975,46.47,12.53
Oktyabr'skiy,26,RU,1627236539,53,54.4815,53.471,54.88,4.18
Madimba,16,TZ,1627236539,69,-10.4,40.3333,73.67,14.79
Zig,1,US,1627236540,54,40.127,-92.7663,88.09,1.99
Ketchikan,90,US,1627236540,82,55.3422,-131.6461,57.67,0.0
Río Gallegos,40,AR,1627236540,70,-51.6226,-69.2181,39.25,20.71
Mago,100,RU,1627236541,90,53.2514,140.1822,70.59,2.21
Ixtapa,1,MX,1627236365,62,20.7,-105.2,90.23,8.05
Naantali,0,FI,1627236541,53,60.4674,22.0243,73.81,10.36
Almeirim,79,BR,1627236542,41,-1.5233,-52.5817,92.26,2.59
Peleduy,29,RU,1627236542,66,59.6289,112.7406,60.24,3.65
Sechura,16,PE,1627236542,60,-5.5569,-80.8222,77.07,8.86
Lagos,27,NG,1627236532,75,6.5833,3.75,76.35,6.89
Shepsi,5,RU,1627236543,71,44.0361,39.1489,78.75,3.09
Padang,30,ID,1627236543,85,-0.9492,100.3543,78.21,3.27
Haines Junction,97,CA,1627236511,77,60.7522,-137.5108,52.12,3.6
East London,7,ZA,1627236543,57,-33.0153,27.9116,61.23,8.9
Egvekinot,100,RU,1627236544,91,66.3167,-179.1667,44.28,1.66
Beberibe,1,BR,1627236544,59,-4.1797,-38.1306,86.16,13.11
Kenora,2,CA,1627236474,41,49.8167,-94.4337,78.78,11.01
Tilichiki,100,RU,1627236545,98,60.4667,166.1,52.36,4.07
Kovdor,100,RU,1627236545,91,67.5662,30.4758,52.61,5.17
Zunyi,0,CN,1627236436,86,27.6867,106.9072,68.76,1.34
Vágur,100,FO,1627236545,92,61.4732,-6.8119,52.29,6.89
Ilhabela,0,BR,1627236545,51,-23.7781,-45.3581,74.57,4.32
Cacheu,100,GW,1627236546,64,12.2706,-16.1658,83.3,7.45
Praia,20,CV,1627236546,57,14.9215,-23.5087,81.14,13.8
Yumbe,98,UG,1627236547,83,3.4651,31.2469,66.88,3.4
Porbandar,100,IN,1627236547,86,21.6422,69.6093,79.5,18.79
Tiksi,83,RU,1627236547,81,71.6872,128.8694,48.0,7.23
Guerrero Negro,60,MX,1627236547,61,27.9769,-114.0611,76.05,9.53
Tabas,0,IR,1627236548,8,33.5959,56.9244,95.68,16.44
Kyrylivka,0,UA,1627236548,56,46.3759,35.3675,78.78,11.18
Goryachiy Klyuch,53,RU,1627236548,58,44.6308,39.13,83.59,7.38
Salalah,75,OM,1627236549,94,17.0151,54.0924,78.89,8.05
La Ronge,97,CA,1627236549,77,55.1001,-105.2842,59.85,4.97
Lena,94,ES,1627236549,87,43.1,-5.7333,66.96,6.51
Tezpur,100,IN,1627236550,95,26.6333,92.8,78.76,0.4
Margate,85,GB,1627236550,79,51.3813,1.3862,68.92,1.99
Lac du Bonnet,4,CA,1627236551,30,50.2536,-96.0612,82.58,12.1
Requena,21,ES,1627236551,37,39.4883,-1.1004,75.0,0.72
Oranjestad,20,AW,1627236551,74,12.524,-70.027,85.95,13.8
Vila Velha,40,BR,1627236552,55,-20.3297,-40.2925,77.97,9.22
Pitsunda,9,GE,1627236552,80,43.1592,40.3378,77.18,3.33
Salinópolis,42,BR,1627236552,68,-0.6136,-47.3561,83.17,10.25
Shingū,0,JP,1627236553,80,33.7333,135.9833,74.91,5.08
Kendari,21,ID,1627236553,92,-3.945,122.4989,70.09,2.77
Choya,56,RU,1627236553,88,52.0108,86.5467,62.87,4.59
Doha,9,QA,1627236554,75,25.2867,51.5333,98.91,5.75
Georgiyevka,0,KZ,1627236554,38,43.0369,74.7114,78.84,6.71
High Prairie,80,CA,1627236554,40,55.4334,-116.4858,70.07,8.63
Yuli,97,NG,1627236555,82,9.6989,10.2744,76.71,4.34
Kudahuvadhoo,93,MV,1627236555,78,2.6708,72.8944,81.23,13.67
Tura,100,IN,1627236555,95,25.5198,90.2201,76.03,6.6
Liverpool,0,GB,1627236333,64,53.4106,-2.9779,74.68,5.01
Saint George,1,US,1627236258,44,37.1041,-113.5841,92.35,3.0
Madang,86,PG,1627236556,94,-5.2246,145.7966,73.94,6.91
Eunice,1,US,1627236556,57,30.4944,-92.4176,93.29,2.64
Adrar,28,MR,1627236556,7,20.5022,-10.0711,110.3,10.25
Kjøllefjord,75,NO,1627236557,76,70.9457,27.3465,46.45,13.8
Rodolfo Sánchez Taboada,100,MX,1627236557,86,31.7167,-116.5667,73.18,1.01
Pisco,75,PE,1627236557,72,-13.7,-76.2167,66.25,8.05
Tigil',93,RU,1627236558,94,57.8,158.6667,54.43,5.1
Swan Hill,16,AU,1627236558,96,-35.3378,143.5544,46.42,9.26
Scottsboro,21,US,1627236558,56,34.6723,-86.0341,92.89,5.41
Qui Nhon,60,VN,1627236559,70,13.7667,109.2333,81.16,18.95
Kryvyi Rih,0,UA,1627236559,56,47.9167,33.35,72.48,4.47
Pangody,100,RU,1627236559,69,65.85,74.4859,52.34,11.74
Kumluca,4,TR,1627236559,55,36.3703,30.2869,82.38,6.49
Biak,73,ID,1627236560,81,-0.9131,122.8766,74.82,7.02
Kabalo,13,CD,1627236560,30,-6.05,26.9167,80.47,6.85
Tambo Grande,17,PE,1627236560,43,-4.9269,-80.3447,86.11,4.68
Tete,75,MZ,1627236561,60,-16.1564,33.5867,68.09,8.05
Gatton,77,AU,1627236561,74,-27.55,152.2833,50.27,6.82
Hualmay,23,PE,1627236561,73,-11.0964,-77.6139,67.37,8.72
Beloha,12,MG,1627236426,61,-25.1667,45.05,61.16,9.6
Imeni Poliny Osipenko,93,RU,1627236562,88,52.4201,136.4853,67.46,4.97
Ayna,1,PE,1627236562,35,-12.65,-73.9167,74.79,6.55
Dwārka,100,IN,1627236562,86,22.2394,68.9678,82.76,20.36
Waingapu,70,ID,1627236563,74,-9.6567,120.2641,71.62,5.03
Puerto Lleras,98,CO,1627236563,73,3.0223,-73.4044,78.55,1.23
Resistencia,22,AR,1627236284,51,-27.4606,-58.9839,91.09,9.19
Bjørnevatn,20,NO,1627236563,58,69.6672,29.9847,52.14,11.5
Soe,44,ID,1627236564,69,-9.8607,124.284,59.72,4.54
Riyadh,8,SA,1627236530,11,24.6877,46.7219,100.54,9.91
Atbasar,6,KZ,1627236564,59,51.8,68.3333,64.81,8.39
Opuwo,0,NA,1627236564,25,-18.0607,13.84,66.76,7.74
Paciran,20,ID,1627236565,80,-6.8767,112.3761,76.1,5.66
Tyachiv,37,UA,1627236565,66,48.0118,23.5706,79.52,4.7
Zverinogolovskoye,13,RU,1627236565,81,54.4586,64.8542,57.99,6.67
Raja,98,SS,1627236565,98,8.4596,25.678,70.07,3.42
Prymors'k,1,UA,1627236566,50,46.7348,36.3443,76.44,10.6
Carutapera,75,BR,1627236566,54,-1.195,-46.02,87.06,8.39
Yagodnoye,100,RU,1627236566,97,62.55,149.6667,55.42,1.23
Richards Bay,2,ZA,1627236436,78,-28.783,32.0377,59.04,7.74
Tamlūk,100,IN,1627236567,80,22.3,87.9167,84.18,5.61
Faya,93,SA,1627236567,71,18.3851,42.4509,64.92,4.16
Da Lat,89,VN,1627236568,92,11.9465,108.4419,61.39,8.23
Xining,100,CN,1627236568,87,36.6167,101.7667,58.66,2.33
Dafeng,52,CN,1627236568,82,23.4517,108.5881,80.38,3.24
Lancaster,90,US,1627236331,70,40.2504,-76.2499,87.73,5.99
Tucupita,84,VE,1627236568,84,9.0622,-62.051,83.35,5.26
Jacksonville,75,US,1627236323,68,30.3322,-81.6556,91.98,1.99
Owando,83,CG,1627236569,35,-0.4819,15.8999,85.41,2.57
Forsytheganj,59,BY,1627236569,67,52.6333,29.7333,68.58,3.96
Narsaq,100,GL,1627236569,48,60.9167,-46.05,59.22,4.34
Hukuntsi,0,BW,1627236570,38,-24.0,21.75,51.15,10.83
Phuket,20,TH,1627236570,79,8.0,98.25,88.09,11.5
Solnechnyy,100,RU,1627236570,72,50.7214,136.6319,72.72,3.74
Kirovskiy,88,RU,1627236571,69,45.0917,133.5136,71.96,2.71
Christchurch,99,NZ,1627236571,80,-43.5333,172.6333,53.01,5.01
Puerto Boyacá,79,CO,1627236571,57,5.9758,-74.5885,87.82,4.23
Yenagoa,77,NG,1627236572,68,4.9247,6.2642,78.08,9.04
Kazlų Rūda,80,LT,1627236572,70,54.7667,23.5,78.78,6.42
Daru,90,PG,1627236572,81,-9.0763,143.2092,76.98,15.32
Los Algarrobos,75,PA,1627236573,86,8.5,-82.4333,79.21,4.61
Zheleznodorozhnyy,60,RU,1627236573,46,55.7503,38.0042,70.21,4.09
Roald,24,NO,1627236573,82,62.5833,6.1333,74.32,9.22
Jumla,100,NP,1627236573,98,29.2747,82.1838,65.71,1.32
Agadir,11,MA,1627236574,45,30.4202,-9.5982,77.45,5.7
Prince Rupert,100,CA,1627236523,92,54.3161,-130.3201,55.9,1.79
Yulara,69,AU,1627236574,53,-25.2406,130.9889,48.04,6.91
São Félix do Xingu,89,BR,1627236574,21,-6.6447,-51.995,97.16,3.8
Kolyvan',41,RU,1627236575,91,55.3053,82.7391,71.06,3.78
Cairns,90,AU,1627236575,73,-16.9167,145.7667,67.95,10.36
Manche,97,FR,1627236575,96,49.0,-1.1667,67.41,5.93
Iracoubo,100,GF,1627236576,84,5.4802,-53.2011,78.21,3.56
Korsakov,61,RU,1627236576,95,46.6328,142.7813,66.56,3.42
Winslow,90,US,1627236525,78,35.0242,-110.6974,69.98,11.5
Okhotsk,100,RU,1627236576,98,59.3833,143.3,55.54,5.79
Hohhot,59,CN,1627236576,92,40.8106,111.6522,66.99,2.68
Kletskaya,43,RU,1627236577,45,49.3145,43.0584,72.14,9.91
Kondopoga,100,RU,1627236577,53,62.2057,34.2614,69.48,4.7
Teacapan,91,MX,1627236577,65,22.55,-105.75,87.4,7.29
Flinders,53,AU,1627236578,61,-34.5833,150.8552,56.17,15.99
Kulhudhuffushi,100,MV,1627236578,79,6.6221,73.07,81.39,20.58
Vila Franca do Campo,46,PT,1627236578,73,37.7167,-25.4333,72.01,8.32
Shymkent,0,KZ,1627236579,14,42.3,69.6,91.99,6.71
Tanout,80,NE,1627236579,34,14.9709,8.8879,94.62,12.84
Bar Harbor,90,US,1627236579,90,44.3876,-68.2039,67.33,13.0
Kolda,97,SN,1627236579,73,12.8833,-14.95,83.16,4.99
Leshukonskoye,90,RU,1627236580,75,64.8989,45.7622,48.69,5.73
Marquette,0,US,1627236580,55,46.5333,-87.6335,81.84,1.01
San Fernando del Valle de Catamarca,0,AR,1627236580,45,-28.4696,-65.7852,76.64,4.0
Mawlaik,84,MM,1627236581,99,23.6333,94.4167,75.4,0.96
Srīvardhan,100,IN,1627236581,88,18.0333,73.0167,80.15,17.56
Mendi,75,PG,1627236581,98,-6.1761,143.6513,54.7,1.95
Kayerkan,100,RU,1627236582,95,69.3497,87.7602,53.46,3.56
Natal,40,BR,1627236291,58,-5.795,-35.2094,84.85,13.8
Aksu,0,CN,1627236582,23,41.1231,80.2644,88.27,0.6
Tiarei,1,PF,1627236582,66,-17.5333,-149.3333,77.02,9.93
Port Pirie,12,AU,1627236583,82,-33.1833,138.0167,48.29,11.56
Peniche,27,PT,1627236583,87,39.3558,-9.3811,73.72,11.99
Paamiut,79,GL,1627236583,70,61.994,-49.6678,44.69,4.72
Nemuro,1,JP,1627236583,93,43.3236,145.575,61.16,5.84
Mataram,39,ID,1627236584,78,-8.5833,116.1167,70.61,6.73
Urmia,0,IR,1627236584,60,37.5527,45.0761,74.75,4.61
Koróni,0,GR,1627236584,62,36.8,21.95,85.06,7.61
Maniitsoq,97,GL,1627236585,72,65.4167,-52.9,45.61,8.66
Santa Lucía,20,ES,1627236585,65,27.9117,-15.5407,69.12,29.93
Hongjiang,0,CN,1627236585,94,27.11,109.9956,73.72,0.54
Ardakān,0,IR,1627236586,10,32.31,54.0175,97.18,6.38
Stornoway,53,GB,1627236586,82,58.2093,-6.3865,62.92,10.36
Sidrolândia,0,BR,1627236586,22,-20.9319,-54.9614,90.39,8.81
